{"status": "OK", "results": [{"geometry": {"location_type": "APPROXIMATE", "bounds": {"northeast": {"lat": 46.61062, "lng": -84.2278098}, "southwest": {"lat": 46.463615, "lng": -84.5912725}}, "viewport": {"northeast": {"lat": 46.61062, "lng": -84.2278098}, "southwest": {"lat": 46.463615, "lng": -84.5912725}}, "location": {"lat": 46.52185799999999, "lng": -84.3460896}}, "address_components": [{"long_name": "Sault Ste. Marie", "types": ["locality", "political"], "short_name": "Sault Ste. Marie"}, {"long_name": "Algoma District", "types": ["administrative_area_level_2", "political"], "short_name": "Algoma District"}, {"long_name": "Ontario", "types": ["administrative_area_level_1", "political"], "short_name": "ON"}, {"long_name": "Canada", "types": ["country", "political"], "short_name": "CA"}], "place_id": "ChIJe4yBCBUxNk0RzSHbE7UOW8U", "formatted_address": "Sault Ste. Marie, ON, Canada", "types": ["locality", "political"]}, {"geometry": {"location_type": "APPROXIMATE", "bounds": {"northeast": {"lat": 46.5073107, "lng": -84.2891787}, "southwest": {"lat": 46.462519, "lng": -84.4626931}}, "viewport": {"northeast": {"lat": 46.5073107, "lng": -84.2891787}, "southwest": {"lat": 46.462519, "lng": -84.4626931}}, "location": {"lat": 46.4952996, "lng": -84.3453169}}, "formatted_address": "Sault Ste. Marie, MI, USA", "place_id": "ChIJpQ4yEXs5Nk0RB1yxaGuUWJo", "address_components": [{"long_name": "Sault Ste. Marie", "types": ["locality", "political"], "short_name": "Sault Ste. Marie"}, {"long_name": "Chippewa County", "types": ["administrative_area_level_2", "political"], "short_name": "Chippewa County"}, {"long_name": "Michigan", "types": ["administrative_area_level_1", "political"], "short_name": "MI"}, {"long_name": "United States", "types": ["country", "political"], "short_name": "US"}], "partial_match": true, "types": ["locality", "political"]}]}