{"status": "OK", "results": [{"geometry": {"location_type": "APPROXIMATE", "bounds": {"northeast": {"lat": 38.774349, "lng": -90.166409}, "southwest": {"lat": 38.5318519, "lng": -90.320515}}, "viewport": {"northeast": {"lat": 38.774349, "lng": -90.166409}, "southwest": {"lat": 38.5318519, "lng": -90.320515}}, "location": {"lat": 38.6270025, "lng": -90.19940419999999}}, "address_components": [{"long_name": "St. Louis", "types": ["locality", "political"], "short_name": "St. Louis"}, {"long_name": "Missouri", "types": ["administrative_area_level_1", "political"], "short_name": "MO"}, {"long_name": "United States", "types": ["country", "political"], "short_name": "US"}], "place_id": "ChIJ-Y7t-qm02IcRW-C7IsrqOb4", "formatted_address": "St. Louis, MO, USA", "types": ["locality", "political"]}, {"geometry": {"location_type": "APPROXIMATE", "bounds": {"northeast": {"lat": 38.8312491, "lng": -90.1243069}, "southwest": {"lat": 38.396902, "lng": -90.513621}}, "viewport": {"northeast": {"lat": 38.8312491, "lng": -90.1243069}, "southwest": {"lat": 38.396902, "lng": -90.513621}}, "location": {"lat": 38.6105426, "lng": -90.3371889}}, "address_components": [{"long_name": "Saint Louis", "types": ["colloquial_area", "political"], "short_name": "Saint Louis"}, {"long_name": "United States", "types": ["country", "political"], "short_name": "US"}], "place_id": "ChIJ-U59z_TK2IcRK9o9AIXA5A0", "formatted_address": "Saint Louis, USA", "types": ["colloquial_area", "political"]}]}