{"status": "OK", "results": [{"geometry": {"location_type": "APPROXIMATE", "bounds": {"northeast": {"lat": 42.62420789999999, "lng": -83.0868819}, "southwest": {"lat": 42.5338001, "lng": -83.209216}}, "viewport": {"northeast": {"lat": 42.62420789999999, "lng": -83.0868819}, "southwest": {"lat": 42.5338001, "lng": -83.209216}}, "location": {"lat": 42.6064095, "lng": -83.1497751}}, "address_components": [{"long_name": "Troy", "types": ["locality", "political"], "short_name": "Troy"}, {"long_name": "Oakland County", "types": ["administrative_area_level_2", "political"], "short_name": "Oakland County"}, {"long_name": "Michigan", "types": ["administrative_area_level_1", "political"], "short_name": "MI"}, {"long_name": "United States", "types": ["country", "political"], "short_name": "US"}], "place_id": "ChIJE8yLMQrEJIgRp3eRfsYAS7Q", "formatted_address": "Troy, MI, USA", "types": ["locality", "political"]}, {"geometry": {"location": {"lat": 43.7430676, "lng": -86.0192321}, "viewport": {"northeast": {"lat": 43.7444165802915, "lng": -86.01788311970849}, "southwest": {"lat": 43.7417186197085, "lng": -86.0205810802915}}, "location_type": "APPROXIMATE"}, "address_components": [{"long_name": "Troy", "types": ["locality", "political"], "short_name": "Troy"}, {"long_name": "Troy Township", "types": ["administrative_area_level_3", "political"], "short_name": "Troy Township"}, {"long_name": "Newaygo County", "types": ["administrative_area_level_2", "political"], "short_name": "Newaygo County"}, {"long_name": "Michigan", "types": ["administrative_area_level_1", "political"], "short_name": "MI"}, {"long_name": "United States", "types": ["country", "political"], "short_name": "US"}, {"long_name": "49459", "types": ["postal_code"], "short_name": "49459"}], "place_id": "ChIJH8smA2ezHogRqbMwZP-xFlI", "formatted_address": "Troy, MI 49459, USA", "types": ["locality", "political"]}]}