{"status": "OK", "results": [{"geometry": {"location_type": "APPROXIMATE", "bounds": {"northeast": {"lat": 35.277445, "lng": -117.630863}, "southwest": {"lat": 35.014038, "lng": -118.134453}}, "viewport": {"northeast": {"lat": 35.277445, "lng": -117.630863}, "southwest": {"lat": 35.014038, "lng": -118.134453}}, "location": {"lat": 35.125801, "lng": -117.9859038}}, "address_components": [{"long_name": "California City", "types": ["locality", "political"], "short_name": "California City"}, {"long_name": "Kern County", "types": ["administrative_area_level_2", "political"], "short_name": "Kern County"}, {"long_name": "California", "types": ["administrative_area_level_1", "political"], "short_name": "CA"}, {"long_name": "United States", "types": ["country", "political"], "short_name": "US"}], "place_id": "ChIJQwmmE9IpwoARMgv1O7TeWDQ", "formatted_address": "California City, CA, USA", "types": ["locality", "political"]}, {"geometry": {"location": {"lat": 41.7964383, "lng": -84.8832941}, "viewport": {"northeast": {"lat": 41.7977872802915, "lng": -84.8819451197085}, "southwest": {"lat": 41.7950893197085, "lng": -84.88464308029151}}, "location_type": "APPROXIMATE"}, "address_components": [{"long_name": "California", "types": ["locality", "political"], "short_name": "California"}, {"long_name": "California Township", "types": ["administrative_area_level_3", "political"], "short_name": "California Township"}, {"long_name": "Branch County", "types": ["administrative_area_level_2", "political"], "short_name": "Branch County"}, {"long_name": "Michigan", "types": ["administrative_area_level_1", "political"], "short_name": "MI"}, {"long_name": "United States", "types": ["country", "political"], "short_name": "US"}, {"long_name": "49255", "types": ["postal_code"], "short_name": "49255"}], "place_id": "ChIJAcMRUduBPYgRJbzXX55KL8k", "formatted_address": "California, MI 49255, USA", "types": ["locality", "political"]}]}